,City,Country,Latitude,Longitude,Cloudiness,Temp,Wind,Pressure,Humidity,Date
0,bluff,NZ,-46.6,168.3333,100.0,7.11,7.18,1001.0,83.0,1627873276.0
1,ushuaia,AR,-54.8,-68.3,40.0,3.81,3.09,992.0,81.0,1627872985.0
2,hermanus,ZA,-34.4187,19.2345,79.0,13.22,4.03,1026.0,88.0,1627873276.0
3,hambantota,LK,6.1241,81.1185,20.0,28.19,6.17,1010.0,83.0,1627873186.0
4,cam ranh,VN,11.9214,109.1591,20.0,33.98,6.17,1005.0,52.0,1627873277.0
5,samusu,,,,,,,,,
6,qaanaaq,GL,77.484,-69.3632,77.0,4.79,1.22,1005.0,86.0,1627873277.0
7,rikitea,PF,-23.1203,-134.9692,2.0,20.68,9.11,1021.0,57.0,1627873194.0
8,gizo,SB,-8.103,156.8419,35.0,27.29,5.36,1010.0,79.0,1627873278.0
9,raga,SS,8.4596,25.678,100.0,19.92,2.08,1014.0,95.0,1627873278.0
10,broken hill,AU,-31.95,141.4333,0.0,17.16,8.9,1011.0,36.0,1627873432.0
11,tuktoyaktuk,CA,69.4541,-133.0374,100.0,9.27,3.11,1015.0,92.0,1627873326.0
12,fortuna,US,40.5982,-124.1573,1.0,14.14,0.89,1017.0,89.0,1627873432.0
13,rosarito,MX,32.3333,-117.0333,0.0,23.87,5.84,1015.0,57.0,1627873433.0
14,severo-kurilsk,RU,50.6789,156.125,29.0,14.43,6.17,1011.0,67.0,1627873433.0
15,tiksi,RU,71.6872,128.8694,16.0,12.11,2.86,1018.0,60.0,1627873395.0
16,hilo,US,19.7297,-155.09,80.0,24.19,0.89,1019.0,86.0,1627873211.0
17,zhigansk,RU,66.7697,123.3711,2.0,25.4,6.43,1012.0,42.0,1627873338.0
18,fairbanks,US,64.8378,-147.7164,20.0,23.5,1.54,1016.0,58.0,1627873291.0
19,abu samrah,SY,35.3029,37.1841,0.0,24.5,3.59,1004.0,50.0,1627873434.0
20,kahului,US,20.8947,-156.47,4.0,25.38,6.65,1018.0,80.0,1627873272.0
21,bonoua,CI,5.2741,-3.595,1.0,23.79,1.61,1015.0,93.0,1627873434.0
22,punta arenas,CL,-53.15,-70.9167,21.0,5.06,9.17,999.0,75.0,1627873234.0
23,mataura,NZ,-46.1927,168.8643,100.0,6.93,2.62,1000.0,86.0,1627873434.0
24,fare,PF,-16.7,-151.0167,2.0,25.23,6.31,1015.0,69.0,1627873435.0
25,tahe,CN,52.3333,124.7333,1.0,22.9,2.04,1008.0,43.0,1627873435.0
26,klaksvik,FO,62.2266,-6.589,97.0,8.51,1.78,1013.0,80.0,1627873435.0
27,saskylakh,RU,71.9167,114.0833,7.0,26.95,3.97,1016.0,34.0,1627873370.0
28,aleksandrov gay,RU,50.147,48.5704,82.0,28.09,2.95,1012.0,31.0,1627873436.0
29,arraial do cabo,BR,-22.9661,-42.0278,28.0,18.94,6.21,1028.0,72.0,1627873436.0
30,vaini,TO,-21.2,-175.2,20.0,24.09,7.72,1007.0,73.0,1627873436.0
31,belushya guba,,,,,,,,,
32,touros,BR,-5.1989,-35.4608,9.0,22.93,6.87,1018.0,77.0,1627873437.0
33,okhotsk,RU,59.3833,143.3,0.0,17.22,6.43,1018.0,59.0,1627873165.0
34,pangnirtung,CA,66.1451,-65.7125,100.0,10.93,0.62,1001.0,80.0,1627873276.0
35,jalu,LY,29.0331,21.5482,1.0,27.98,3.0,1009.0,38.0,1627873379.0
36,havoysund,NO,70.9963,24.6622,97.0,7.49,6.8,998.0,88.0,1627873437.0
37,mahebourg,MU,-20.4081,57.7,3.0,20.74,6.07,1023.0,70.0,1627873438.0
38,lebu,CL,-37.6167,-73.65,6.0,9.86,7.56,1022.0,80.0,1627873329.0
39,castro,BR,-24.7911,-50.0119,13.0,7.17,1.44,1029.0,95.0,1627873280.0
40,ngunguru,NZ,-35.6167,174.5,44.0,18.42,4.02,1005.0,60.0,1627873251.0
41,bathsheba,BB,13.2167,-59.5167,0.0,26.81,3.7,1018.0,78.0,1627873268.0
42,east london,ZA,-33.0153,27.9116,92.0,17.21,7.91,1025.0,68.0,1627873233.0
43,temaraia,,,,,,,,,
44,barrow,US,71.2906,-156.7887,90.0,8.01,6.17,1013.0,78.0,1627873439.0
45,hasaki,JP,35.7333,140.8333,32.0,29.72,4.96,1009.0,81.0,1627873186.0
46,nara,JP,34.6851,135.8049,87.0,34.41,1.37,1006.0,45.0,1627873324.0
47,jamestown,US,42.097,-79.2353,4.0,13.42,2.33,1013.0,94.0,1627873222.0
48,kamenskoye,,,,,,,,,
49,cape town,ZA,-33.9258,18.4232,26.0,13.85,0.89,1026.0,86.0,1627873208.0
50,illoqqortoormiut,,,,,,,,,
51,kemijarvi,FI,66.7131,27.4306,100.0,9.69,2.0,998.0,95.0,1627873332.0
52,yellowknife,CA,62.456,-114.3525,20.0,25.72,3.6,1016.0,34.0,1627873142.0
53,attawapiskat,,,,,,,,,
54,port alfred,ZA,-33.5906,26.891,83.0,15.69,5.53,1026.0,83.0,1627873328.0
55,yatou,CN,37.15,122.3833,1.0,28.66,0.13,1003.0,62.0,1627873211.0
56,victoria,HK,22.2855,114.1577,100.0,30.37,0.89,1001.0,86.0,1627873237.0
57,poya,NC,-21.35,165.15,0.0,22.8,4.96,1015.0,46.0,1627873440.0
58,ahipara,NZ,-35.1667,173.1667,9.0,14.42,4.87,1007.0,66.0,1627873441.0
59,vuktyl,RU,63.8567,57.3094,31.0,14.62,1.79,1006.0,90.0,1627873441.0
60,oranjemund,NA,-28.55,16.4333,0.0,12.58,3.11,1021.0,78.0,1627873441.0
61,karratha,AU,-20.7377,116.8463,0.0,22.49,8.77,1019.0,30.0,1627873241.0
62,kananga,CD,-5.8958,22.4178,36.0,19.34,1.74,1014.0,38.0,1627873442.0
63,new norfolk,AU,-42.7826,147.0587,67.0,11.72,2.34,1010.0,48.0,1627873442.0
64,tiarei,PF,-17.5333,-149.3333,1.0,27.01,4.52,1016.0,66.0,1627873320.0
65,zhanaozen,KZ,43.3,52.8,0.0,30.77,2.36,1011.0,11.0,1627873353.0
66,tabuk,PH,17.4189,121.4443,100.0,32.09,1.67,1003.0,58.0,1627873443.0
67,yumen,CN,40.2833,97.2,53.0,22.18,1.65,1008.0,34.0,1627873443.0
68,lunenburg,CA,44.3835,-64.3155,7.0,14.92,2.37,1015.0,91.0,1627873443.0
69,upernavik,GL,72.7868,-56.1549,3.0,5.3,4.69,1001.0,82.0,1627873444.0
70,faanui,PF,-16.4833,-151.75,24.0,25.49,6.7,1015.0,70.0,1627873400.0
71,serik,TR,36.9169,31.0989,0.0,32.14,4.52,1004.0,35.0,1627873444.0
72,doha,QA,25.2867,51.5333,0.0,35.99,1.03,996.0,36.0,1627873445.0
73,san ciro de acosta,MX,21.6333,-99.8167,10.0,21.41,0.24,1018.0,82.0,1627873445.0
74,albany,US,42.6001,-73.9662,100.0,15.86,0.34,1009.0,94.0,1627873176.0
75,avarua,CK,-21.2078,-159.775,75.0,24.03,4.63,1009.0,94.0,1627873160.0
76,busselton,AU,-33.65,115.3333,100.0,12.8,3.96,1026.0,69.0,1627873445.0
77,constitucion,CL,-35.3333,-72.4167,0.0,11.82,2.17,1019.0,60.0,1627873446.0
78,padang,ID,-0.9492,100.3543,100.0,29.03,1.67,1013.0,77.0,1627873276.0
79,kavaratti,IN,10.5669,72.642,59.0,27.93,6.86,1012.0,74.0,1627873446.0
80,meyungs,,,,,,,,,
81,lashio,MM,22.9333,97.75,100.0,20.92,0.81,1006.0,99.0,1627873447.0
82,kapaa,US,22.0752,-159.319,75.0,26.69,1.79,1020.0,75.0,1627873447.0
83,fort nelson,CA,58.8053,-122.7002,0.0,27.67,1.95,1013.0,49.0,1627873447.0
84,ribeira grande,PT,38.5167,-28.7,21.0,22.62,5.51,1029.0,95.0,1627873448.0
85,taolanaro,,,,,,,,,
86,westport,US,41.1415,-73.3579,72.0,19.61,1.79,1010.0,85.0,1627873448.0
87,karamea,,,,,,,,,
88,ilulissat,GL,69.2167,-51.1,0.0,14.01,11.32,997.0,41.0,1627873354.0
89,fukue,JP,32.6881,128.8419,100.0,28.09,6.36,1003.0,78.0,1627873449.0
90,port elizabeth,ZA,-33.918,25.5701,75.0,14.16,5.14,1025.0,94.0,1627873267.0
91,saleaula,,,,,,,,,
92,najran,SA,17.4924,44.1277,78.0,25.7,6.36,1009.0,49.0,1627873449.0
93,arrifes,PT,37.7667,-25.7,75.0,21.14,4.63,1026.0,94.0,1627873449.0
94,airai,TL,-8.9266,125.4092,17.0,24.53,1.9,1013.0,44.0,1627873450.0
95,leningradskiy,RU,69.3833,178.4167,100.0,0.9,8.09,1015.0,99.0,1627873312.0
96,tateyama,JP,34.9833,139.8667,84.0,30.61,4.19,1008.0,79.0,1627873450.0
97,launceston,AU,-41.45,147.1667,40.0,11.85,1.34,1013.0,81.0,1627873244.0
98,takoradi,GH,4.8845,-1.7554,6.0,23.6,2.49,1015.0,92.0,1627873451.0
99,hobart,AU,-42.8794,147.3294,75.0,12.2,1.34,1007.0,57.0,1627873451.0
100,sao joao da barra,BR,-21.6403,-41.0511,66.0,18.67,3.04,1029.0,71.0,1627873451.0
101,sungairaya,ID,0.7,108.9,97.0,28.32,3.6,1011.0,77.0,1627873451.0
102,basoko,CD,1.2391,23.616,99.0,21.83,1.39,1013.0,90.0,1627873452.0
103,monclova,MX,26.9,-101.4167,40.0,29.47,4.72,1019.0,58.0,1627873452.0
104,nanortalik,GL,60.1432,-45.2371,100.0,7.38,3.06,1001.0,93.0,1627873452.0
105,ruatoria,,,,,,,,,
106,sotouboua,TG,8.5667,0.9833,83.0,21.13,1.18,1015.0,86.0,1627873453.0
107,caravelas,BR,-17.7125,-39.2481,73.0,19.43,3.8,1027.0,75.0,1627873453.0
108,karaul,,,,,,,,,
109,vaitupu,,,,,,,,,
110,mar del plata,AR,-38.0023,-57.5575,90.0,4.88,2.24,1027.0,31.0,1627873156.0
111,hobyo,SO,5.3505,48.5268,6.0,24.59,8.87,1015.0,78.0,1627873454.0
112,carnarvon,AU,-24.8667,113.6333,0.0,16.04,8.75,1024.0,43.0,1627873454.0
113,san sebastian,ES,43.3128,-1.975,0.0,14.08,0.89,1018.0,87.0,1627873454.0
114,grand river south east,,,,,,,,,
115,sangar,RU,63.9242,127.4739,91.0,26.12,3.22,1011.0,27.0,1627873455.0
116,barentsburg,,,,,,,,,
117,kyabram,AU,-36.3167,145.05,0.0,13.82,6.13,1015.0,57.0,1627873455.0
118,kabalo,CD,-6.05,26.9167,4.0,21.49,1.62,1014.0,42.0,1627873456.0
119,chuy,UY,-33.6971,-53.4616,84.0,10.51,2.81,1030.0,93.0,1627873456.0
120,naushki,RU,50.3828,106.1056,100.0,16.6,1.58,1001.0,88.0,1627873456.0
121,swan hill,AU,-35.3378,143.5544,1.0,16.44,7.35,1013.0,42.0,1627873456.0
122,flinders,AU,-34.5833,150.8552,5.0,18.38,2.24,1013.0,75.0,1627873457.0
123,namwala,ZM,-15.7504,26.4384,0.0,12.55,1.61,1022.0,69.0,1627873457.0
124,opuwo,NA,-18.0607,13.84,0.0,13.03,2.69,1020.0,38.0,1627873457.0
125,yomitan,,,,,,,,,
126,tasiilaq,GL,65.6145,-37.6368,100.0,7.09,1.62,1010.0,77.0,1627873391.0
127,cherskiy,RU,68.75,161.3,72.0,6.05,9.62,1022.0,67.0,1627873210.0
128,lorengau,PG,-2.0226,147.2712,42.0,29.67,4.32,1009.0,71.0,1627873458.0
129,mariinsk,RU,56.2139,87.7472,100.0,17.57,0.16,1007.0,78.0,1627873458.0
130,iqaluit,CA,63.7506,-68.5145,100.0,8.72,1.02,1001.0,93.0,1627873459.0
131,bethel,US,41.3712,-73.414,75.0,18.43,3.09,1011.0,91.0,1627873459.0
132,griffith,US,41.5284,-87.4237,1.0,18.73,0.89,1019.0,74.0,1627873459.0
133,pringsewu,ID,-5.3582,104.9744,38.0,29.21,1.43,1013.0,66.0,1627873460.0
134,talara,PE,-4.5772,-81.2719,1.0,18.88,8.02,1015.0,83.0,1627873460.0
135,saint-philippe,RE,-21.3585,55.7679,36.0,17.35,3.54,1025.0,74.0,1627873336.0
136,dickinson,US,29.4608,-95.0513,1.0,28.57,0.45,1016.0,79.0,1627873460.0
137,port lincoln,AU,-34.7333,135.8667,100.0,11.97,7.38,1007.0,73.0,1627873461.0
138,gat,IL,31.61,34.7642,0.0,23.7,1.41,1006.0,66.0,1627873453.0
139,french harbor,HN,16.35,-86.4333,46.0,28.33,9.01,1017.0,89.0,1627873461.0
140,haines junction,CA,60.7522,-137.5108,53.0,26.56,1.64,1015.0,30.0,1627873461.0
141,pisco,PE,-13.7,-76.2167,1.0,16.12,1.29,1016.0,90.0,1627873462.0
142,toftir,,,,,,,,,
143,novyy urgal,RU,51.0736,132.5642,100.0,17.69,1.15,1009.0,93.0,1627873462.0
144,bambous virieux,MU,-20.3428,57.7575,4.0,20.74,5.96,1023.0,69.0,1627873356.0
145,vila franca do campo,PT,37.7167,-25.4333,59.0,22.23,4.55,1026.0,90.0,1627873173.0
146,hodmezovasarhely,HU,46.4167,20.3333,83.0,16.77,4.92,1010.0,79.0,1627873463.0
147,esperance,AU,-33.8667,121.9,99.0,13.28,7.82,1022.0,62.0,1627873276.0
148,yerbogachen,RU,61.2767,108.0108,100.0,22.24,4.38,1007.0,44.0,1627873463.0
149,norman wells,CA,65.282,-126.8329,4.0,29.64,2.25,1013.0,33.0,1627873341.0
150,pincehely,HU,46.681,18.4394,95.0,17.19,4.9,1012.0,77.0,1627873463.0
151,galion,US,40.7337,-82.7899,0.0,16.0,3.05,1012.0,84.0,1627873464.0
152,nobeoka,JP,32.5833,131.6667,99.0,29.31,2.98,1005.0,73.0,1627873464.0
153,belyy,RU,55.8402,32.9419,98.0,16.86,2.35,1007.0,71.0,1627873464.0
154,georgetown,MY,5.4112,100.3354,20.0,30.52,1.54,1012.0,72.0,1627873324.0
155,yeppoon,AU,-23.1333,150.7333,0.0,26.88,5.02,1016.0,57.0,1627873465.0
156,saint-georges,GD,12.0564,-61.7485,4.0,26.56,4.57,1018.0,82.0,1627873465.0
157,namie,JP,37.4833,141.0,17.0,30.33,0.89,1005.0,77.0,1627873465.0
158,hami,CN,42.8,93.45,4.0,25.76,1.04,1007.0,25.0,1627873432.0
159,kieta,PG,-6.2167,155.6333,23.0,28.28,2.63,1010.0,77.0,1627873466.0
160,darapidap,PH,17.2131,120.4114,100.0,28.4,7.61,1005.0,84.0,1627873466.0
161,tazmalt,DZ,36.3868,4.3989,98.0,23.06,1.75,1014.0,78.0,1627873467.0
162,egvekinot,RU,66.3167,-179.1667,98.0,7.4,1.19,1010.0,59.0,1627873467.0
163,longyearbyen,SJ,78.2186,15.6401,40.0,7.91,5.66,1004.0,71.0,1627873467.0
164,agboville,CI,5.928,-4.2132,17.0,21.32,1.18,1015.0,99.0,1627873468.0
165,puri,IN,19.8,85.85,71.0,28.29,4.21,1003.0,70.0,1627873468.0
166,san cristobal,VE,7.7669,-72.225,100.0,24.1,2.81,1019.0,98.0,1627873468.0
167,saryg-sep,RU,51.5,95.6,99.0,17.61,1.38,1009.0,62.0,1627873469.0
168,provideniya,RU,64.3833,-173.3,90.0,6.06,9.0,1006.0,81.0,1627873469.0
169,salinopolis,BR,-0.6136,-47.3561,66.0,25.08,2.52,1017.0,81.0,1627873469.0
170,nouadhibou,MR,20.931,-17.0347,8.0,20.76,7.15,1011.0,86.0,1627873469.0
171,sitka,US,57.0531,-135.33,75.0,16.94,2.06,1021.0,72.0,1627873470.0
172,honiara,SB,-9.4333,159.95,75.0,27.51,0.54,1011.0,77.0,1627873470.0
173,charters towers,AU,-20.1,146.2667,0.0,28.57,5.38,1015.0,27.0,1627873470.0
174,aflu,,,,,,,,,
175,grand baie,MU,-20.0182,57.5802,4.0,21.7,7.9,1023.0,68.0,1627873471.0
176,mount isa,AU,-20.7333,139.5,1.0,32.87,5.14,1015.0,24.0,1627873471.0
177,berlevag,NO,70.8578,29.0864,100.0,7.51,6.84,997.0,92.0,1627873385.0
178,nabire,ID,-3.3667,135.4833,25.0,30.52,2.1,1009.0,64.0,1627873472.0
179,maceio,BR,-9.6658,-35.7353,75.0,21.69,2.57,1021.0,94.0,1627873472.0
180,vestmannaeyjar,IS,63.4427,-20.2734,87.0,11.96,2.78,1011.0,89.0,1627873472.0
181,zabaykalsk,RU,49.6333,117.3167,1.0,23.25,5.48,1006.0,49.0,1627873472.0
182,san ramon,US,37.7799,-121.978,1.0,17.59,0.45,1014.0,66.0,1627873473.0
183,butaritari,KI,3.0707,172.7902,55.0,28.5,3.45,1009.0,68.0,1627873306.0
184,lubango,AO,-14.9172,13.4925,0.0,13.17,0.94,1019.0,36.0,1627873473.0
185,bubaque,GW,11.2833,-15.8333,89.0,26.23,8.48,1014.0,83.0,1627873474.0
186,cidreira,BR,-30.1811,-50.2056,3.0,12.47,1.5,1028.0,94.0,1627873474.0
187,luena,AO,-11.7833,19.9167,32.0,9.91,1.35,1021.0,53.0,1627873457.0
188,champasak,LA,14.75,106.0,100.0,26.29,1.28,1007.0,94.0,1627873275.0
189,clyde river,CA,70.4692,-68.5914,100.0,2.91,3.25,1006.0,93.0,1627873474.0
190,souillac,MU,-20.5167,57.5167,2.0,20.08,5.49,1023.0,75.0,1627873475.0
191,beringovskiy,RU,63.05,179.3167,99.0,7.41,10.31,1006.0,75.0,1627873190.0
192,gladstone,AU,-23.85,151.25,0.0,24.96,5.14,1017.0,57.0,1627873475.0
193,omsukchan,RU,62.5333,155.8,100.0,1.63,5.18,1021.0,99.0,1627873475.0
194,nikolskoye,RU,59.7035,30.7861,100.0,14.73,1.99,1005.0,83.0,1627873476.0
195,manyana,BW,-23.4,21.7167,0.0,8.63,1.67,1025.0,48.0,1627873476.0
196,porto de moz,BR,-1.7483,-52.2383,96.0,23.33,1.04,1017.0,81.0,1627873476.0
197,kunming,CN,25.0389,102.7183,0.0,24.89,1.2,1005.0,44.0,1627873477.0
198,xam nua,LA,20.4197,104.0439,100.0,23.4,1.0,1004.0,87.0,1627873477.0
199,alta floresta,BR,-9.8756,-56.0861,12.0,22.97,1.97,1018.0,45.0,1627873477.0
200,dunedin,NZ,-45.8742,170.5036,100.0,10.45,6.26,1000.0,75.0,1627873411.0
201,kismayo,SO,-0.3582,42.5454,99.0,23.52,7.91,1017.0,86.0,1627873478.0
202,bilibino,RU,68.0546,166.4372,98.0,8.72,4.68,1017.0,52.0,1627873262.0
203,taltal,CL,-25.4,-70.4833,39.0,14.62,1.31,1017.0,74.0,1627873221.0
204,petropavlovsk-kamchatskiy,RU,53.0452,158.6483,20.0,21.33,3.0,1003.0,43.0,1627873478.0
205,gurupi,BR,-11.7292,-49.0686,3.0,23.69,2.37,1018.0,42.0,1627873332.0
206,bredasdorp,ZA,-34.5322,20.0403,100.0,12.93,2.65,1027.0,93.0,1627873371.0
207,oberasbach,DE,49.4227,10.9577,0.0,13.45,0.89,1014.0,89.0,1627873479.0
208,luderitz,NA,-26.6481,15.1594,0.0,16.76,2.81,1019.0,37.0,1627873479.0
209,puerto ayora,EC,-0.7393,-90.3518,48.0,21.42,1.34,1015.0,92.0,1627873327.0
210,puli,TW,23.9664,120.9695,100.0,23.06,1.11,1002.0,91.0,1627873480.0
211,nesna,NO,66.1967,13.0213,95.0,8.1,2.95,1006.0,75.0,1627873480.0
212,svetlyy,RU,54.675,20.1347,100.0,16.03,2.47,1004.0,90.0,1627873480.0
213,atuona,PF,-9.8,-139.0333,18.0,25.16,5.16,1014.0,69.0,1627873182.0
214,ponta delgada,PT,37.7333,-25.6667,75.0,22.4,4.63,1026.0,94.0,1627873441.0
215,iralaya,HN,15.0,-83.2333,5.0,26.74,5.23,1015.0,86.0,1627873481.0
216,suclayin,PH,15.7568,121.5503,100.0,31.02,3.33,1004.0,65.0,1627873481.0
217,bandar-e torkaman,,,,,,,,,
218,verkhnyaya inta,RU,65.9811,60.3094,90.0,11.72,4.06,1004.0,91.0,1627873481.0
219,kingsville,US,27.5159,-97.8561,20.0,28.85,0.45,1015.0,82.0,1627873482.0
220,skibbereen,IE,51.55,-9.2667,100.0,11.89,2.26,1018.0,85.0,1627873482.0
221,tumannyy,,,,,,,,,
222,nguiu,,,,,,,,,
223,akkudah,,,,,,,,,
224,chokurdakh,RU,70.6333,147.9167,38.0,9.64,3.19,1027.0,50.0,1627873483.0
225,yamada,JP,39.4667,141.95,24.0,29.16,5.68,1007.0,71.0,1627873483.0
226,togur,RU,58.3631,82.8265,94.0,16.27,0.67,1007.0,69.0,1627873483.0
227,roald,NO,62.5833,6.1333,40.0,9.62,2.06,1008.0,87.0,1627873484.0
228,hamilton,US,39.1834,-84.5333,0.0,18.55,0.89,1016.0,74.0,1627873254.0
229,torbat-e jam,IR,35.244,60.6225,0.0,26.59,8.53,1007.0,13.0,1627873484.0
230,minas,UY,-34.3759,-55.2377,0.0,6.4,1.67,1031.0,91.0,1627873269.0
231,sao filipe,CV,14.8961,-24.4956,19.0,24.02,0.32,1014.0,76.0,1627873387.0
232,creston,US,41.0586,-94.3614,1.0,18.91,3.09,1022.0,88.0,1627873485.0
233,isangel,VU,-19.55,169.2667,44.0,22.24,4.89,1014.0,62.0,1627873422.0
234,coihaique,CL,-45.5752,-72.0662,98.0,5.79,3.5,1016.0,98.0,1627873450.0
235,dingle,PH,10.9995,122.6711,98.0,31.56,7.52,1007.0,63.0,1627873260.0
236,kysyl-syr,RU,63.8986,122.7617,85.0,29.09,4.76,1010.0,23.0,1627873485.0
237,nigde,TR,37.8333,34.75,0.0,13.96,2.37,1012.0,60.0,1627873486.0
238,santa cruz,BO,-17.8,-63.1667,84.0,18.35,4.34,1027.0,24.0,1627873370.0
239,taoudenni,ML,22.6783,-3.9836,77.0,35.81,6.74,1007.0,27.0,1627873486.0
240,bogatoye,RU,53.0601,51.3325,45.0,23.29,1.86,1015.0,45.0,1627873486.0
241,sombrio,BR,-29.1139,-49.6167,68.0,12.74,1.68,1027.0,88.0,1627873487.0
242,banda aceh,ID,5.5577,95.3222,99.0,28.78,7.34,1011.0,66.0,1627873220.0
243,ewa beach,US,21.3156,-158.0072,1.0,28.52,6.17,1018.0,50.0,1627873487.0
244,chicama,PE,-7.8447,-79.1469,5.0,17.3,2.68,1015.0,82.0,1627873188.0
245,narsaq,GL,60.9167,-46.05,100.0,13.12,3.37,1001.0,92.0,1627873487.0
246,ramhormoz,IR,31.28,49.6035,0.0,35.02,1.45,997.0,19.0,1627873488.0
247,karlovac,HR,45.4872,15.5478,60.0,18.87,0.15,1013.0,97.0,1627873488.0
248,matara,LK,5.9485,80.5353,75.0,27.79,4.82,1012.0,74.0,1627873488.0
249,hoima,UG,1.4356,31.3436,96.0,17.98,1.27,1016.0,57.0,1627873489.0
250,palabuhanratu,,,,,,,,,
251,fort saint james,CA,54.4333,-124.25,62.0,23.22,4.29,1015.0,59.0,1627873489.0
252,magog,CA,45.2668,-72.1491,100.0,15.02,0.88,1011.0,99.0,1627873205.0
253,kloulklubed,PW,7.0419,134.2556,100.0,26.28,6.29,1009.0,73.0,1627873490.0
254,portland,US,45.5234,-122.6762,20.0,26.9,0.89,1016.0,54.0,1627873428.0
255,abu jubayhah,,,,,,,,,
256,nome,US,64.5011,-165.4064,90.0,12.04,4.12,1007.0,94.0,1627873490.0
257,thinadhoo,MV,0.5333,72.9333,92.0,27.13,2.06,1013.0,74.0,1627873490.0
258,bambanglipuro,ID,-7.95,110.2833,56.0,27.83,6.23,1014.0,68.0,1627873491.0
259,mizan teferi,ET,6.9833,35.5833,97.0,15.24,1.1,1017.0,89.0,1627873491.0
260,saint anthony,US,45.0205,-93.218,1.0,18.49,0.0,1021.0,62.0,1627873491.0
261,altay,CN,47.8667,88.1167,1.0,23.11,2.18,1010.0,31.0,1627873492.0
262,ostrovnoy,RU,68.0531,39.5131,38.0,11.35,3.77,1002.0,77.0,1627873492.0
263,saint combs,,,,,,,,,
264,tucuma,BR,-0.1833,-50.05,30.0,24.01,2.33,1017.0,85.0,1627873492.0
265,zomba,MW,-15.386,35.3188,0.0,11.68,1.08,1023.0,72.0,1627873493.0
266,arrecife,ES,28.963,-13.5477,75.0,20.99,7.72,1017.0,78.0,1627873493.0
267,guerrero,MX,17.6667,-100.0,100.0,20.12,2.0,1018.0,90.0,1627873493.0
268,namibe,AO,-15.1961,12.1522,5.0,19.03,0.92,1016.0,87.0,1627873384.0
269,pevek,RU,69.7008,170.3133,100.0,2.0,7.18,1019.0,88.0,1627873350.0
270,saint-pierre,RE,-21.3393,55.4781,25.0,17.7,3.09,1023.0,63.0,1627873457.0
271,halalo,,,,,,,,,
272,rio grande,BR,-32.035,-52.0986,0.0,8.86,2.71,1029.0,94.0,1627873494.0
273,makakilo city,US,21.3469,-158.0858,1.0,28.0,6.17,1019.0,50.0,1627873494.0
274,samarai,PG,-10.6167,150.6667,92.0,26.16,3.91,1012.0,64.0,1627873495.0
275,plettenberg bay,ZA,-34.0527,23.3716,100.0,14.31,2.65,1027.0,86.0,1627873495.0
276,peniche,PT,39.3558,-9.3811,72.0,18.98,2.33,1015.0,95.0,1627873257.0
277,sambava,MG,-14.2667,50.1667,49.0,19.28,4.04,1021.0,88.0,1627873495.0
278,izazi,TZ,-7.2,35.7333,3.0,16.52,1.0,1020.0,72.0,1627873496.0
279,russell,US,32.3502,-85.1999,65.0,25.01,0.44,1014.0,92.0,1627873224.0
280,mwene-ditu,CD,-7.0,23.45,75.0,18.09,1.72,1015.0,41.0,1627873436.0
281,kristinehamn,SE,59.3098,14.1081,47.0,11.5,1.7,1001.0,92.0,1627873496.0
282,necochea,AR,-38.5473,-58.7368,0.0,3.91,4.16,1030.0,66.0,1627873398.0
283,rocha,UY,-34.4833,-54.3333,0.0,6.72,1.47,1030.0,96.0,1627873269.0
284,nemuro,JP,43.3236,145.575,99.0,19.55,0.83,1010.0,98.0,1627873474.0
285,anadyr,RU,64.75,177.4833,40.0,11.67,5.0,1008.0,66.0,1627873462.0
286,havre-saint-pierre,CA,50.2334,-63.5986,65.0,12.24,2.55,1010.0,76.0,1627873497.0
287,canmore,CA,51.0834,-115.3521,100.0,25.71,1.05,1016.0,44.0,1627873298.0
288,kaeo,NZ,-35.1,173.7833,17.0,17.96,4.9,1006.0,58.0,1627873497.0
289,rawson,AR,-43.3002,-65.1023,22.0,12.78,3.21,1015.0,38.0,1627873498.0
290,ajdabiya,LY,30.7554,20.2263,0.0,27.26,3.91,1010.0,35.0,1627873498.0
291,kuche,,,,,,,,,
292,lavrentiya,RU,65.5833,-171.0,100.0,5.25,8.2,1008.0,87.0,1627873499.0
293,ormara,PK,25.2088,64.6357,95.0,27.68,6.89,1000.0,85.0,1627873499.0
294,nola,IT,40.922,14.5329,4.0,24.8,1.79,1010.0,58.0,1627873499.0
295,chabahar,IR,25.2919,60.643,99.0,28.46,2.62,998.0,84.0,1627873499.0
296,harper,LR,4.375,-7.7169,100.0,24.56,2.65,1015.0,77.0,1627873500.0
297,acapulco,MX,16.8634,-99.8901,14.0,27.4,1.99,1013.0,86.0,1627873496.0
298,paka,MY,4.6374,103.4368,99.0,29.85,0.54,1010.0,65.0,1627873500.0
299,muyezerskiy,RU,63.9333,31.65,7.0,12.73,3.21,999.0,95.0,1627873501.0
300,virginia beach,US,36.8529,-75.978,90.0,23.92,0.0,1011.0,88.0,1627873480.0
301,yeehaw junction,,,,,,,,,
302,vanavara,RU,60.34,102.2797,40.0,23.46,3.92,1006.0,39.0,1627873501.0
303,torbay,CA,47.6666,-52.7314,47.0,14.69,1.34,1014.0,90.0,1627873501.0
304,buraydah,SA,26.326,43.975,5.0,28.64,1.07,1002.0,9.0,1627873502.0
305,fort saint john,,,,,,,,,
306,ust-kuyga,RU,70.0167,135.6,0.0,21.22,3.36,1019.0,29.0,1627873502.0
307,quesnel,CA,52.9999,-122.5029,100.0,22.79,1.51,1016.0,66.0,1627873503.0
308,hoquiam,US,46.9809,-123.8893,90.0,15.78,5.66,1020.0,58.0,1627873504.0
309,marienburg,PL,54.0359,19.0266,100.0,14.96,2.99,1005.0,94.0,1627873504.0
310,hirara,JP,24.8,125.2833,100.0,28.17,5.66,998.0,81.0,1627873504.0
311,bud,US,39.447,-86.1758,0.0,17.79,3.08,1018.0,67.0,1627873505.0
312,meulaboh,ID,4.1363,96.1285,93.0,27.26,0.44,1013.0,72.0,1627873423.0
313,blenheim,NZ,-41.516,173.9528,72.0,14.14,1.34,999.0,75.0,1627873505.0
314,talnakh,RU,69.4865,88.3972,84.0,18.68,2.5,1015.0,63.0,1627873334.0
315,sentyabrskiy,,,,,,,,,
316,oxford,GB,51.7522,-1.256,6.0,12.22,1.42,1013.0,95.0,1627873312.0
317,tsihombe,,,,,,,,,
318,nizhneyansk,,,,,,,,,
319,la raya de santa maria,PA,8.1667,-80.8167,100.0,25.13,1.89,1013.0,89.0,1627873506.0
320,mlonggo,ID,-6.5333,110.7,7.0,29.94,1.57,1012.0,53.0,1627873506.0
321,wajima,JP,37.4,136.9,75.0,29.42,1.63,1006.0,68.0,1627873506.0
322,richards bay,ZA,-28.783,32.0377,93.0,19.76,6.81,1023.0,72.0,1627873507.0
323,adeje,ES,28.1227,-16.726,0.0,20.07,4.12,1016.0,69.0,1627873507.0
324,tepalcatepec,MX,19.1833,-102.85,18.0,25.64,1.24,1013.0,80.0,1627873507.0
325,kaitangata,NZ,-46.2817,169.8464,100.0,12.74,0.92,999.0,73.0,1627873309.0
326,qom,IR,34.6401,50.8764,6.0,28.69,7.62,1006.0,21.0,1627873508.0
327,dwarka,IN,22.2394,68.9678,92.0,28.07,9.64,1002.0,82.0,1627873479.0
328,te anau,NZ,-45.4167,167.7167,100.0,8.83,0.54,1000.0,86.0,1627873508.0
329,cabo san lucas,MX,22.8909,-109.9124,19.0,30.83,0.89,1014.0,70.0,1627873509.0
330,guerrero negro,MX,27.9769,-114.0611,0.0,23.71,6.31,1013.0,74.0,1627873509.0
331,ndele,CF,8.4109,20.6473,100.0,19.85,1.47,1014.0,97.0,1627873509.0
332,nortelandia,BR,-14.4547,-56.8028,0.0,20.12,0.98,1021.0,39.0,1627873510.0
333,thompson,CA,55.7435,-97.8558,75.0,24.09,5.66,1014.0,46.0,1627873346.0
334,ketchikan,US,55.3422,-131.6461,1.0,19.26,2.06,1020.0,72.0,1627873510.0
335,ust-kut,RU,56.7938,105.7672,2.0,23.82,1.68,1003.0,33.0,1627873510.0
336,hithadhoo,MV,-0.6,73.0833,83.0,27.37,3.07,1013.0,73.0,1627873389.0
337,soyo,AO,-6.1349,12.3689,78.0,21.78,1.88,1017.0,89.0,1627873457.0
338,tallahassee,US,30.4383,-84.2807,40.0,24.89,2.06,1016.0,90.0,1627873466.0
339,tilichiki,RU,60.4667,166.1,99.0,11.41,1.59,1007.0,74.0,1627873511.0
340,kavieng,PG,-2.5744,150.7967,10.0,28.15,4.78,1009.0,78.0,1627873511.0
341,khatanga,RU,71.9667,102.5,89.0,21.52,2.44,1017.0,48.0,1627873512.0
342,tsiroanomandidy,MG,-18.7667,46.0333,24.0,11.84,0.94,1023.0,80.0,1627873512.0
343,kamenka,RU,51.3223,42.7678,4.0,22.07,2.48,1013.0,64.0,1627873512.0
344,marfino,RU,55.7028,37.3822,100.0,18.28,3.0,1009.0,94.0,1627873512.0
345,atbasar,KZ,51.8,68.3333,13.0,25.55,4.71,1011.0,50.0,1627873513.0
346,mareeba,AU,-17.0,145.4333,2.0,27.43,3.33,1015.0,43.0,1627873513.0
347,bilma,NE,18.6853,12.9164,9.0,32.13,2.49,1006.0,13.0,1627873513.0
348,ulaangom,MN,49.9811,92.0667,8.0,21.52,3.14,1008.0,36.0,1627873514.0
349,mikhaylovka,RU,50.06,43.2379,15.0,24.69,1.45,1012.0,44.0,1627873514.0
350,kitimat,CA,54.0524,-128.6534,24.0,23.28,1.34,1014.0,68.0,1627873514.0
351,rawah,IQ,34.4816,41.9093,10.0,31.71,4.09,1000.0,16.0,1627873515.0
352,sao joao do piaui,BR,-8.3581,-42.2467,49.0,22.19,3.98,1021.0,56.0,1627873515.0
353,slavuta,UA,50.3016,26.8651,50.0,20.44,4.73,1004.0,70.0,1627873515.0
354,sembakung,ID,3.8167,117.25,87.0,30.59,2.36,1010.0,61.0,1627873516.0
355,miraflores,MX,19.2167,-98.8083,99.0,15.58,1.46,1022.0,92.0,1627873516.0
356,fredericton,CA,45.9454,-66.6656,23.0,13.54,1.6,1012.0,88.0,1627873404.0
357,ambon,ID,-3.6954,128.1814,40.0,32.08,3.09,1011.0,66.0,1627873516.0
358,srednekolymsk,RU,67.45,153.6833,100.0,7.6,3.86,1026.0,52.0,1627873389.0
359,sorland,NO,67.667,12.6934,100.0,9.53,6.3,1004.0,76.0,1627873517.0
360,the valley,AI,18.217,-63.0578,0.0,28.23,6.91,1019.0,74.0,1627873517.0
361,lengshuijiang,CN,27.6881,111.4294,0.0,36.03,1.84,1000.0,44.0,1627873517.0
362,dikson,RU,73.5069,80.5464,100.0,6.08,5.13,1014.0,98.0,1627873518.0
363,coahuayana,MX,18.7333,-103.6833,63.0,26.59,0.69,1014.0,86.0,1627873298.0
364,tigil,RU,57.8,158.6667,100.0,8.78,5.25,1008.0,91.0,1627873518.0
365,balad,IQ,34.0164,44.1453,2.0,34.04,5.07,997.0,13.0,1627873518.0
366,katsuura,JP,35.1333,140.3,79.0,31.22,4.7,1008.0,82.0,1627873519.0
367,portpatrick,,,,,,,,,
368,vydrino,RU,51.485,104.8461,100.0,12.9,3.28,1002.0,100.0,1627873519.0
369,codrington,AU,-38.2667,141.9667,17.0,14.0,9.15,1008.0,66.0,1627873430.0
370,okha,RU,53.5739,142.9478,96.0,15.73,5.07,1014.0,71.0,1627873231.0
371,cartagena del chaira,CO,1.3349,-74.8429,100.0,20.07,1.33,1020.0,94.0,1627873520.0
372,dinkelsbuhl,DE,49.0694,10.3199,6.0,12.68,2.94,1015.0,90.0,1627873520.0
373,tuatapere,NZ,-46.1333,167.6833,100.0,7.12,1.98,1001.0,93.0,1627873520.0
374,varhaug,NO,58.6147,5.6457,63.0,11.26,11.27,1005.0,75.0,1627873520.0
375,nuuk,GL,64.1835,-51.7216,90.0,13.34,0.0,997.0,76.0,1627873521.0
376,benin,BJ,9.5,2.25,100.0,21.23,1.64,1015.0,96.0,1627873521.0
377,faya,SA,18.3851,42.4509,69.0,16.29,2.17,1013.0,67.0,1627873521.0
378,cayenne,GF,4.9333,-52.3333,90.0,23.38,0.0,1017.0,90.0,1627873522.0
379,mogadishu,SO,2.0371,45.3438,62.0,23.98,7.01,1016.0,85.0,1627873522.0
380,amambai,BR,-23.1042,-55.2258,19.0,13.5,1.11,1026.0,85.0,1627873522.0
381,saldanha,ZA,-33.0117,17.9442,30.0,12.82,3.53,1024.0,87.0,1627873523.0
382,ossora,RU,59.2353,163.0719,100.0,11.82,3.18,1008.0,72.0,1627873385.0
383,auce,LV,56.4598,22.9017,100.0,16.25,0.57,1004.0,90.0,1627873523.0
384,chunskiy,RU,56.0815,99.6342,100.0,14.06,2.05,1008.0,97.0,1627873290.0
385,jinka,ET,5.65,36.65,95.0,17.71,2.88,1017.0,60.0,1627873523.0
386,san pedro de ycuamandiyu,PY,-24.0917,-57.0764,69.0,13.13,1.86,1027.0,61.0,1627873524.0
387,kruisfontein,ZA,-34.0033,24.7314,92.0,14.94,3.26,1027.0,91.0,1627873524.0
388,lida,BY,53.8833,25.2997,100.0,16.39,3.09,999.0,99.0,1627873524.0
389,union,US,40.6334,-74.2663,1.0,19.51,1.54,1010.0,94.0,1627873437.0
390,malakal,SS,9.5334,31.6605,99.0,21.62,1.55,1013.0,94.0,1627873525.0
391,sidney,AU,-33.8679,151.2073,75.0,17.45,0.89,1016.0,57.0,1627873495.0
392,tura,IN,25.5198,90.2201,97.0,25.51,2.22,1003.0,94.0,1627873525.0
393,bajil,YE,15.0584,43.2851,100.0,31.31,1.54,1006.0,53.0,1627873526.0
394,alofi,NU,-19.0595,-169.9187,18.0,24.64,11.07,1007.0,65.0,1627873526.0
395,kailua,US,21.4022,-157.7394,1.0,27.42,7.72,1018.0,61.0,1627873526.0
396,cockburn harbour,,,,,,,,,
397,nyurba,RU,63.2842,118.3319,100.0,27.89,4.91,1008.0,38.0,1627873527.0
398,palmer,US,42.1584,-72.3287,90.0,17.59,0.0,1011.0,84.0,1627873527.0
399,haibowan,,,,,,,,,
400,lufkin,US,31.3382,-94.7291,22.0,27.62,1.12,1014.0,87.0,1627873527.0
401,adra,ES,36.7496,-3.0206,67.0,22.65,1.09,1014.0,76.0,1627873528.0
402,maxixe,MZ,-23.8597,35.3472,0.0,15.04,2.12,1021.0,88.0,1627873528.0
403,prince rupert,CA,54.3161,-130.3201,91.0,16.52,1.27,1020.0,83.0,1627873473.0
404,ilebo,CD,-4.3167,20.5833,64.0,18.02,0.37,1014.0,40.0,1627873528.0
405,esso,RU,55.9333,158.7,99.0,10.06,2.11,1005.0,87.0,1627873529.0
406,mohelnice,CZ,49.777,16.9195,100.0,14.78,1.44,1011.0,47.0,1627873529.0
407,cockburn town,TC,21.4612,-71.1419,100.0,27.81,9.15,1020.0,79.0,1627873529.0
408,nepalganj,,,,,,,,,
409,khasan,RU,42.4308,130.6434,94.0,24.28,8.11,1006.0,90.0,1627873530.0
410,qaqortoq,GL,60.7167,-46.0333,100.0,13.28,2.45,1001.0,99.0,1627873530.0
411,shache,CN,38.4167,77.2406,100.0,20.44,6.39,1009.0,56.0,1627873530.0
412,kita,ML,13.0349,-9.4895,17.0,21.79,1.11,1014.0,97.0,1627873531.0
413,kautokeino,NO,69.0125,23.0412,86.0,5.36,0.61,1000.0,79.0,1627873531.0
414,pozoblanco,ES,38.3791,-4.8483,100.0,14.32,1.62,1015.0,49.0,1627873531.0
415,madang,PG,-5.2246,145.7966,22.0,29.72,2.8,1010.0,67.0,1627873532.0
416,tubruq,,,,,,,,,
417,altamira,BR,-3.2033,-52.2064,16.0,21.95,1.3,1017.0,82.0,1627873532.0
418,anahuac,MX,27.2333,-100.15,1.0,33.63,5.59,1011.0,31.0,1627873532.0
419,tingo maria,PE,-9.2895,-76.0088,33.0,18.03,0.87,1023.0,97.0,1627873533.0
420,tombouctou,ML,20.0,-3.0,9.0,33.04,4.57,1010.0,37.0,1627873533.0
421,san lorenzo,PY,-25.3333,-57.5333,0.0,10.52,1.03,1028.0,82.0,1627873533.0
422,coldingham,GB,55.8868,-2.157,42.0,8.99,2.24,1014.0,90.0,1627873534.0
423,emerald,AU,-23.5333,148.1667,0.0,27.97,2.83,1015.0,42.0,1627873534.0
424,ponta do sol,PT,32.6667,-17.1,2.0,20.47,2.02,1022.0,77.0,1627873534.0
425,bengkulu,ID,-3.8004,102.2655,71.0,26.64,4.26,1013.0,82.0,1627873535.0
426,kuva,,,,,,,,,
427,lamar,US,33.6668,-95.5836,1.0,25.59,2.06,1017.0,83.0,1627873535.0
428,coquimbo,CL,-29.9533,-71.3436,0.0,11.85,3.09,1015.0,87.0,1627873535.0
429,kisangani,CD,0.5167,25.2,100.0,22.07,1.01,1013.0,90.0,1627873536.0
430,muros,ES,42.7762,-9.0603,86.0,15.29,3.11,1016.0,93.0,1627873536.0
431,khonuu,,,,,,,,,
432,mbumi,TZ,-7.9058,39.2105,23.0,19.57,1.18,1019.0,94.0,1627873536.0
433,ucluelet,CA,48.9329,-125.5528,19.0,15.09,0.45,1019.0,85.0,1627873537.0
434,great yarmouth,GB,52.6083,1.7305,14.0,9.73,3.67,1014.0,82.0,1627873537.0
435,mafra,BR,-26.1114,-49.8053,49.0,11.62,1.29,1029.0,98.0,1627873484.0
436,calama,CL,-22.4667,-68.9333,75.0,9.27,5.14,1029.0,27.0,1627873498.0
437,port augusta,AU,-32.5,137.7667,78.0,17.13,9.84,1010.0,37.0,1627873240.0
438,santa rosa,PH,14.3122,121.1114,98.0,30.1,8.59,1005.0,71.0,1627873531.0
439,guaraniacu,BR,-25.1008,-52.8781,2.0,8.96,0.89,1027.0,72.0,1627873538.0
440,mityana,UG,0.4175,32.0228,100.0,19.09,0.55,1015.0,53.0,1627873538.0
441,umzimvubu,,,,,,,,,
442,vanimo,PG,-2.6741,141.3028,42.0,29.77,2.22,1010.0,66.0,1627873277.0
443,lompoc,US,34.6391,-120.4579,1.0,18.39,4.12,1018.0,74.0,1627873455.0
444,los llanos de aridane,ES,28.6585,-17.9182,75.0,20.07,6.69,1016.0,66.0,1627873539.0
445,komsomolskiy,UZ,40.4272,71.7189,10.0,26.39,0.0,1007.0,41.0,1627873539.0
446,mantua,IT,45.1667,10.7833,22.0,17.32,1.34,1009.0,89.0,1627873539.0
447,paris,FR,48.8534,2.3488,0.0,14.99,1.03,1014.0,84.0,1627873295.0
448,lata,PT,40.1629,-8.3327,100.0,17.64,0.29,1015.0,94.0,1627873540.0
449,ancud,CL,-41.8697,-73.8203,100.0,8.87,1.55,1025.0,88.0,1627873295.0
450,mecca,SA,21.4267,39.8261,9.0,30.49,2.82,1005.0,44.0,1627873540.0
451,champerico,GT,14.3,-91.9167,100.0,28.57,2.62,1013.0,77.0,1627873540.0
452,tual,ID,-5.6667,132.75,24.0,27.47,4.88,1010.0,78.0,1627873541.0
453,san patricio,US,28.017,-97.5169,2.0,28.91,6.61,1014.0,71.0,1627873541.0
454,khani,GE,41.9563,42.9566,9.0,14.76,1.51,1014.0,89.0,1627873541.0
455,hovd,MN,48.0056,91.6419,7.0,17.66,1.15,1009.0,44.0,1627873295.0
456,angol,CL,-37.8,-72.7167,29.0,9.92,3.2,1023.0,56.0,1627873542.0
457,shubarshi,KZ,48.5872,57.1869,1.0,29.38,3.8,1013.0,33.0,1627873542.0
458,arona,ES,28.0996,-16.681,0.0,17.8,4.12,1016.0,68.0,1627873542.0
459,antofagasta,CL,-23.65,-70.4,37.0,13.6,1.04,1017.0,77.0,1627873493.0
460,sandpoint,US,48.2766,-116.5533,40.0,26.4,2.06,1018.0,44.0,1627873491.0
461,ballina,AU,-28.8667,153.5667,100.0,19.88,3.08,1018.0,86.0,1627873511.0
462,kamaishi,JP,39.2667,141.8833,16.0,32.53,5.38,1008.0,75.0,1627873543.0
463,kodiak,US,57.79,-152.4072,90.0,13.73,2.57,1020.0,88.0,1627873543.0
464,mys shmidta,,,,,,,,,
465,birobidzhan,RU,48.8,132.95,83.0,23.77,2.66,1009.0,63.0,1627873544.0
466,belyy yar,RU,53.6039,91.3903,0.0,20.94,2.0,1009.0,64.0,1627873544.0
467,vardo,NO,70.3705,31.1107,100.0,9.11,7.72,997.0,94.0,1627873338.0
468,adrar,MR,20.5022,-10.0711,44.0,31.83,3.01,1010.0,33.0,1627873338.0
469,sept-iles,CA,50.2001,-66.3821,72.0,15.03,3.04,1006.0,88.0,1627873545.0
470,husavik,IS,66.0449,-17.3389,100.0,11.79,0.77,1010.0,73.0,1627873545.0
471,kushiro,JP,42.975,144.3747,75.0,21.53,2.06,1009.0,94.0,1627873545.0
472,vao,NC,-22.6667,167.4833,5.0,19.63,5.82,1015.0,59.0,1627873385.0
473,sioux lookout,CA,50.1001,-91.917,73.0,15.64,1.97,1018.0,66.0,1627873546.0
474,amderma,,,,,,,,,
475,phan thiet,VN,10.9333,108.1,52.0,31.32,7.78,1007.0,60.0,1627873314.0
476,riyadh,SA,24.6877,46.7219,4.0,30.08,3.41,1002.0,12.0,1627873504.0
477,tiznit,MA,29.5833,-9.5,0.0,20.11,0.5,1012.0,52.0,1627873546.0
478,autlan,,,,,,,,,
479,warendorf,DE,51.95,7.9833,50.0,12.51,2.68,1012.0,95.0,1627873547.0
480,mocuba,MZ,-16.8392,36.9856,0.0,13.83,1.28,1023.0,93.0,1627873547.0
481,broome,US,42.2506,-75.833,90.0,14.89,0.89,997.0,97.0,1627873547.0
482,zeya,RU,53.75,127.2667,99.0,17.8,1.51,1009.0,73.0,1627873548.0
483,manaure,CO,11.7751,-72.4445,11.0,28.27,6.98,1011.0,73.0,1627873548.0
484,sur,OM,22.5667,59.5289,88.0,32.41,2.8,999.0,56.0,1627873548.0
485,oshnaviyeh,IR,37.0397,45.0983,3.0,18.05,0.71,1012.0,78.0,1627873549.0
486,poum,NC,-20.2333,164.0167,1.0,21.03,6.04,1015.0,58.0,1627873549.0
487,nichinan,JP,31.6,131.3667,100.0,31.53,3.92,1005.0,68.0,1627873549.0
488,balkanabat,TM,39.5108,54.3671,7.0,31.39,2.51,1009.0,13.0,1627873550.0
489,fez,MA,34.0372,-4.9998,0.0,16.14,2.06,1017.0,77.0,1627873550.0
490,kolokani,ML,13.5728,-8.0339,12.0,22.53,2.97,1014.0,91.0,1627873550.0
491,muhos,FI,64.808,25.9931,59.0,12.88,2.4,999.0,95.0,1627873550.0
492,stornoway,GB,58.2093,-6.3865,90.0,9.52,2.06,1014.0,81.0,1627873551.0
493,riga,LV,57.0,24.0833,0.0,15.06,0.0,1003.0,94.0,1627873551.0
494,bereda,ES,43.2686,-7.5406,82.0,12.87,1.26,1018.0,100.0,1627873551.0
495,saint george,US,37.1041,-113.5841,1.0,33.06,1.34,1015.0,27.0,1627873523.0
496,iberia,US,29.9502,-91.7507,90.0,27.46,6.17,1017.0,83.0,1627873552.0
497,salalah,OM,17.0151,54.0924,90.0,25.05,1.54,1003.0,94.0,1627873552.0
498,mitsamiouli,KM,-11.3847,43.2844,4.0,24.3,4.52,1019.0,65.0,1627873552.0
499,dharchula,IN,29.85,80.5333,24.0,26.78,1.5,1004.0,77.0,1627873553.0
